{"type":"FeatureCollection","features":[{"type":"Feature","properties":{"id":1,"Name":"Highmark Stadium","occupy ":"71608"},"geometry":{"type":"Point","coordinates":[-78.78746,42.773773]}},{"type":"Feature","properties":{"id":2,"Name":"Hard Rock Stadium","occupy ":"65326"},"geometry":{"type":"Point","coordinates":[-80.239311,25.95796]}},{"type":"Feature","properties":{"id":3,"Name":"Arrowhead Stadium","occupancy ":"76416"},"geometry":{"type":"Point","coordinates":[-94.484566,39.048786]}},{"type":"Feature","properties":{"id":4,"Name":"M&T Bank Stadium","occupancy ":"71008"},"geometry":{"type":"Point","coordinates":[-76.623322,39.278088]}},{"type":"Feature","properties":{"id":5,"Name":"Cleveland Browns Stadium ","occupancy ":"67431"},"geometry":{"type":"Point","coordinates":[-81.700058,41.506035]}},{"type":"Feature","properties":{"id":6,"Name":"Acrisure Stadium","occupancy ":"68400"},"geometry":{"type":"Point","coordinates":[-80.00949996,40.44133157]}},{"type":"Feature","properties":{"id":7,"Name":"NRG Stadium","occupancy ":"72220"},"geometry":{"type":"Point","coordinates":[-95.411667,29.68486]}},{"type":"Feature","properties":{"id":8,"Name":"AT&T Stadium","occupancy ":"80000"},"geometry":{"type":"Point","coordinates":[-97.093628,32.747841]}},{"type":"Feature","properties":{"id":9,"Name":"Lincoln Financial Field","occupancy ":"69596"},"geometry":{"type":"Point","coordinates":[-75.168098,39.900898]}},{"type":"Feature","properties":{"id":10,"Name":"SoFi Stadium","occupancy ":"70240"},"geometry":{"type":"Point","coordinates":[-118.33963,33.953587]}},{"type":"Feature","properties":{"id":11,"Name":"Levi's Stadium","occupancy ":"68500"},"geometry":{"type":"Point","coordinates":[-121.9688691,37.40201489]}},{"type":"Feature","properties":{"id":12,"Name":"Ford Field","occupancy ":"65000"},"geometry":{"type":"Point","coordinates":[-83.046341,42.340115]}},{"type":"Feature","properties":{"id":13,"Name":"Lambeau Field","occupancy ":"81441"},"geometry":{"type":"Point","coordinates":[-88.0573331,44.50083133]}},{"type":"Feature","properties":{"id":14,"Name":"Raymond James Stadium","occupancy ":"69218"},"geometry":{"type":"Point","coordinates":[-82.503693,27.975958]}}]}